UF,Nome,Alfabetizacao,Alfabetizacao(%),EnsinoFundamental ,EnsinoFundamental(%),EJAEnsinoFundamental,EJAEnsinoFundamental(%),EnsinoMedio,EnsinoMedio(%),EJAEnsinoMedio,EJAEnsinoMedio(%),EnsinoSuperior,EnsinoSuperior(%),Especializacao,Especializacao(%),Mestrado,Mestrado(%),Doutorado,Doutorado(%),Total,latitude,longitude
RO,Rondônia,182681.0,0.2729714783573489,22369.3,0.0334253747834698,2354.72,0.003518545439961554,57778.1,0.08633505057274014,7334.42,0.010959472907930805,62199.1,0.09294113936039644,1060.45,0.0015845797002646729,333454.0,0.4982643588778879,0.0,0.0,669231.0899999999,-10.83,-63.34
AC,Acre,0.0,0.0,14960.0,0.022427293368396273,2100.73,0.003149310695039512,37655.0,0.056450516830679254,4724.85,0.0070832618363413855,28702.1,0.04302877118910739,2268.7,0.0034011230257273138,576633.0,0.8644597230547091,0.0,0.0,667044.3799999999,-8.77,-70.55
AM,Amazonas,592496.0,0.49797038507683705,67136.3,0.05642551032181493,11854.4,0.009963172971386908,195965.0,0.16470113977407844,8838.34,0.007428289090964347,114876.0,0.09654891502404528,6024.52,0.00506338024949216,2569.2,0.0021593150221088575,190062.0,0.15973989246927203,1189821.76,-3.47,-65.1
RR,Roraima,0.0,0.0,6876.02,0.039538893657131174,1103.83,0.006347308033651894,23885.1,0.1373455034874744,2034.06,0.01169637116125669,22834.3,0.13130313167137825,1053.91,0.0060602551205766,116118.0,0.6677085368685312,0.0,0.0,173905.21999999997,1.99,-61.33
PA,Pará,1139.73,0.0013455782413317296,173044.0,0.20429772068209825,20685.5,0.024421537303631117,414300.0,0.4891273068040111,22696.2,0.026795392663975858,205294.0,0.24237243862665378,7495.11,0.008848812378710625,2364.21,0.002791213299587524,0.0,0.0,847018.75,-3.79,-52.48
AP,Amapá,0.0,0.0,15742.7,0.02553524883627735,2578.21,0.0041819531530283005,43939.0,0.071270703158746,2912.48,0.004724151608725381,40044.6,0.06495384054509022,1314.59,0.002132314200720451,509977.0,0.8272017884974123,0.0,0.0,616508.58,1.41,-51.77
TO,Tocantins,234319.0,0.2317736020412465,19464.5,0.01925305791221302,1085.03,0.0010732433623513828,71567.1,0.07078966944484269,1620.58,0.0016029757040445002,45919.8,0.04542097504262835,2661.25,0.002632340947308017,634345.0,0.6274541355453656,0.0,0.0,1010982.26,-9.46,-48.26
MA,Maranhão,409717.0,0.38529835097361376,120885.0,0.11368039685306028,9643.55,0.009068805816042762,346224.0,0.3255894587422256,4693.65,0.004413914006612618,159873.0,0.15034475812622994,10117.8,0.00951479107647676,2221.95,0.002089524405738158,0.0,0.0,1063375.9500000002,-5.42,-45.44
PI,Piauí,242985.0,0.4416321302955552,56634.7,0.10293517381587208,8983.27,0.016327348054901134,126394.0,0.2297246804394362,10709.1,0.019464093036805276,93280.6,0.1695401366061591,10137.6,0.018425375574970555,1073.47,0.0019510621763004698,0.0,0.0,550197.74,-6.6,-42.28
CE,Ceará,0.0,0.0,101349.0,0.13289253399886117,17461.4,0.022896029493805706,368006.0,0.48254299368306447,18989.4,0.024899599257200113,238860.0,0.31320201157355254,12888.8,0.016900268302642567,2543.08,0.003334579969825295,2541.1,0.0033319837210481216,762638.78,-5.2,-39.53
RN,Rio Grande do Norte,0.0,0.0,57683.1,0.09698141395942837,14680.8,0.02468252819379638,127851.0,0.2149532663141696,7707.12,0.01295782291789085,117114.0,0.19690136824207602,5233.3,0.008798640046631969,1694.78,0.002849398883731284,262821.0,0.4418755614422756,594785.1,-5.81,-36.59
PB,Paraíba,204639.0,0.1685852629447427,56716.5,0.046724065626813555,17430.9,0.014359886726691959,161301.0,0.13288264455089177,11374.4,0.009370433860792329,116082.0,0.0956304247633717,10174.4,0.00838185242942445,3630.35,0.0029907471661386473,632512.0,0.5210746819311328,1213860.55,-7.28,-36.72
PE,Pernambuco,203663.0,0.10470586821784811,115581.0,0.05942173568339414,26418.6,0.013582155080206233,326473.0,0.16784412934448342,37150.4,0.019099516783315302,233875.0,0.12023826089888309,11427.9,0.005875236009519384,4602.43,0.002366170728418371,985905.0,0.5068669272539319,1945096.33,-8.38,-37.86
AL,Alagoas,638429.0,0.690930000076514,57299.0,0.06201096453072178,9751.66,0.010553584571731764,135193.0,0.14631055215277525,8997.41,0.009737309069588675,68202.2,0.0738107856178501,4258.06,0.004608220171899775,1883.68,0.0020385838089186548,0.0,0.0,924014.01,-9.62,-36.82
SE,Sergipe,223147.0,0.38638422889796026,57955.7,0.10035164467701344,11908.0,0.020618979406924184,75261.0,0.13031617476860272,5815.88,0.01007033170583996,58331.4,0.10100217797926246,4025.18,0.006969692939970028,141082.0,0.24428676962442708,0.0,0.0,577526.1599999999,-10.57,-37.45
BA,Bahia,2557.93,0.001864340285319069,359670.0,0.2621444959090787,28406.6,0.020704072726362592,621068.0,0.45266371336297073,25972.2,0.018929766943725564,310057.0,0.22598419653593907,18754.8,0.013669384691176881,2390.33,0.0017421854836554287,3152.71,0.0022978440617719338,1372029.57,-13.29,-41.71
MG,Minas Gerais,1274.23,0.0007598176661808289,161626.0,0.09637686297932292,17881.8,0.010662837590633046,825822.0,0.49243397559371893,44746.4,0.026682078759716725,566557.0,0.33783541236543785,43115.6,0.02570963999276908,11401.1,0.006798425083300698,4596.63,0.002740949968919884,1677020.76,-18.1,-44.38
ES,Espírito Santo,122001.0,0.2779029912845553,44752.8,0.10194127087777516,6135.58,0.013976082452321634,136732.0,0.3114583634914453,10257.4,0.023365071948608596,107053.0,0.24385332026774778,8413.9,0.019165809939009678,2315.92,0.005275375575411081,1344.11,0.003061714163125578,439005.70999999996,-19.19,-40.34
RJ,Rio de Janeiro,5274.27,0.003722070183132992,195805.0,0.13818025095574465,11271.3,0.007954194543538136,586317.0,0.413765890552434,20051.1,0.014150129107728258,549074.0,0.38748337945034367,32165.3,0.02269916103300127,11531.7,0.008137959704534414,5536.27,0.003906964469542456,1417025.9400000002,-22.25,-42.66
SP,São Paulo,9790.28,0.002944486486137935,256613.0,0.07717792654217386,41468.2,0.012471814340801805,1573399.0,0.47320935589206237,69822.7,0.020999603338787365,1270226.0,0.3820282250702783,69214.7,0.020816743626545033,24086.3,0.007244101787800159,10333.1,0.003107742915413236,3324953.28,-22.19,-48.79
PR,Paraná,4169.91,0.004546121215268315,89202.7,0.09725060898897456,20328.9,0.02216298279173125,387278.0,0.4222184008783601,29199.2,0.03183356537403987,343522.0,0.37451471425316185,33210.3,0.03620654867741158,9008.2,0.009820923984301828,1326.46,0.0014461338367506276,917245.67,-24.89,-51.55
SC,Santa Catarina,366807.0,0.39004492491693415,60217.3,0.06403218111213936,7762.04,0.00825378007781269,226474.0,0.24082156099975668,14956.6,0.015904129212399483,243558.0,0.25898786507051025,15139.4,0.016098509941978843,4248.01,0.0045171295572232414,1260.09,0.0013399191112453675,940422.44,-27.45,-50.95
RS,Rio Grande do Sul,1586.02,0.0017458510389768657,140619.0,0.15478986850726212,19340.0,0.021288986957171147,369639.0,0.4068893407374243,17821.2,0.019617130008331877,325705.0,0.3585278953922145,22702.8,0.024990672858907194,7698.11,0.008473886421141094,3339.8,0.003676368078570848,908450.93,-30.17,-53.5
MS,Mato Grosso do Sul,0.0,0.0,26167.0,0.01815571440269573,3550.42,0.0024634238364970753,92588.4,0.06424154650523764,8141.07,0.005648600980332256,80350.1,0.05575012297275356,7516.23,0.005215061920165618,549639.0,0.38136158935236286,673302.0,0.4671639400299553,1441254.22,-20.51,-54.54
MT,Mato Grosso,210.35,0.0007032078446370332,29312.3,0.0979921050836896,2413.74,0.008069222262487246,129590.0,0.4332241720300125,10237.0,0.034222670337767096,112185.0,0.3750386120779918,14146.2,0.047291270795362016,1034.61,0.0034587395680528684,0.0,0.0,299129.19999999995,-12.64,-55.42
GO,Goiás,1532.71,0.002456413134869952,66484.4,0.10655189398121485,4815.16,0.007717064722289538,305429.0,0.4894988663022976,11572.8,0.018547264601407296,218753.0,0.3505867010016289,12405.1,0.019881158587975054,2037.64,0.003265644290267832,932.82,0.0014949933780489387,623962.63,-15.98,-49.86
DF,Distrito Federal,593648.0,0.655239012548998,28383.1,0.03132784818121086,5246.74,0.005791089562672374,113480.0,0.1252535562219704,9951.84,0.010984343945647287,138287.0,0.15263428383210806,13338.2,0.014722038981317288,2352.01,0.0025960311664578483,1315.33,0.0014517955596179443,906002.22,-15.83,-47.86
