UF,Nome,BrancaMasculino,BrancaMasculino(%),BrancaFeminino,BrancaFeminino(%),PretaMasculino,PretaMasculino(%),PretaFeminino,PretaFeminino(%),AmarelaMasculino,AmarelaMasculino(%),AmarelaFeminino,AmarelaFeminino(%),PardaMasculino,PardaMasculino(%),PardaFeminino,PardaFeminino(%),IndigenaMasculino,IndigenaMasculino(%),IndigenaFeminino,IndigenaFeminino(%),IgnoradoMasculino,IgnoradoMasculino(%),IgnoradoFeminino,IgnoradoFeminino(%),Total,latitude,longitude
RO,Rondônia,56976.6,0.129930075660759,57963.6,0.132180841495807,15201.5,0.0346656705587387,13869.6,0.0316283909075737,1131.39,0.00258003440538443,6967.08,0.0158878071266899,144332.0,0.32913630648843,139850.0,0.31891550357791,638.528,0.00145610639019375,1587.11,0.00361926338851296,0.0,"0,0%",0.0,"0,0%",438517.408,-10.83,-63.34
AC,Acre,17555.9,0.0765384257805522,19800.1,0.0863224605003168,5494.39,0.0239538822404097,5340.72,0.0232839274166924,577.738,0.00251876332364645,437.04,0.00190536250509131,90297.6,0.393670284961864,88604.2,0.386287572015402,796.22,0.00347127890766017,469.767,0.00204804234836452,0.0,"0,0%",0.0,"0,0%",229373.675,-8.77,-70.55
AM,Amazonas,72796.2,0.0720469392100524,76833.6,0.0760427839432481,9259.94,0.00916463131686451,9193.0,0.00909838030224121,3345.49,0.00331105627296257,2997.9,0.00296704387121602,435765.0,0.431279853410871,380794.0,0.376874646884764,9918.62,0.00981653179956659,9495.87,0.00939813298821312,0.0,"0,0%",0.0,"0,0%",1010399.62,-3.47,-65.1
RR,Roraima,14603.4,0.103977848185673,14027.1,0.0998745274583489,4844.86,0.034495947352044,2866.11,0.0204070251080871,82.6827,0.000588710110534638,238.04,0.00169487153554087,49487.5,0.352356558204835,44801.1,0.318988863850278,4633.24,0.0329891891838741,4863.19,0.034626459010784,0.0,"0,0%",0.0,"0,0%",140447.2227,1.99,-61.33
PA,Pará,189089.0,0.0859511378947184,179911.0,0.081779242419055,89138.2,0.0405181143265182,71917.8,0.0326905147569916,6417.23,0.0029169767708969,4478.53,0.00203573317112912,804136.0,0.365523135783188,843698.0,0.383506196232981,4830.56,0.00219574977216396,6342.92,0.00288319887235729,0.0,"0,0%",0.0,"0,0%",2199959.24,-3.79,-52.48
AP,Amapá,17233.4,0.0710772002229973,18230.2,0.0751883885655347,11645.5,0.0480305415760625,6258.1,0.0258108223981071,1426.95,0.00588529314344274,794.973,0.00327877581283304,92688.9,0.382284836639861,93326.8,0.384915782710993,488.675,0.0020154845137334,366.812,0.00151287441643542,0.0,"0,0%",0.0,"0,0%",242460.31,1.41,-51.77
TO,Tocantins,34080.1,0.093590891488743,37233.1,0.102249671271197,19417.6,0.0533246819866085,16626.7,0.0456603025083812,779.892,0.00214174217637092,1485.42,0.00407926567220192,126616.0,0.347713308257273,126008.0,0.346043616500935,537.696,0.00147662266219674,1354.56,0.00371989747609284,0.0,"0,0%",0.0,"0,0%",364139.068,-9.46,-48.26
MA,Maranhão,139205.0,0.0807411792588975,145702.0,0.0845095456368657,108638.0,0.0630118187732345,93197.0,0.0540557859515928,4530.84,0.00262796138524754,6322.55,0.00366718252162884,590406.0,0.342445146952542,631955.0,0.366544247250864,1168.64,0.000677830334608082,2964.23,0.00171930193451817,0.0,"0,0%",0.0,"0,0%",1724089.26,-5.42,-45.44
PI,Piauí,60875.4,0.0818099072486557,57685.1,0.0775224915257958,24654.0,0.0331322907661938,30494.4,0.0409811522487475,882.623,0.00118614917956236,1437.05,0.00193123868116974,282910.0,0.38020022635937,284380.0,0.382175746251732,398.918,0.000536102343143852,390.43,0.000524695395629312,0.0,"0,0%",0.0,"0,0%",744107.921,-6.6,-42.28
CE,Ceará,267625.0,0.121030239244165,264625.0,0.119673524745398,55849.0,0.0252570493472112,41125.1,0.0185983398110798,8698.08,0.00393360374914485,1068.39,0.000483166734445862,789104.0,0.356862945944989,775247.0,0.350596281675185,3638.51,0.0016454730903028,4244.17,0.00191937565807719,0.0,"0,0%",0.0,"0,0%",2211224.25,-5.2,-39.53
RN,Rio Grande do Norte,134923.0,0.162524597199114,144977.0,0.174635373717869,22610.9,0.0272364786938436,20237.8,0.0243779066074445,2949.69,0.0035531168081962,229.774,0.000276779546829149,266178.0,0.320630820788642,236474.0,0.284850185647098,182.18,0.000219449101470725,1407.38,0.00169529188949319,0.0,"0,0%",0.0,"0,0%",830169.724,-5.81,-36.59
PB,Paraíba,127343.0,0.138113306721722,150372.0,0.163090033675654,31207.9,0.0338473749231668,24573.3,0.026651639431024,2141.32,0.00232242672113393,1447.96,0.00157042431543771,287865.0,0.312211798366997,295961.0,0.320992534891337,805.705,0.000873849224474255,301.142,0.000326611729052974,0.0,"0,0%",0.0,"0,0%",922018.327,-7.28,-36.72
PE,Pernambuco,337720.0,0.154455810246198,339025.0,0.155052650327838,79548.5,0.0363814047772406,77853.6,0.0356062444290638,2975.62,0.00136089600285678,6999.51,0.00320121695006623,673344.0,0.307953017572001,664910.0,0.30409573845434,1601.19,0.000732302199479185,2537.93,0.00116071904091595,0.0,"0,0%",0.0,"0,0%",2186515.35,-8.38,-37.86
AL,Alagoas,84048.7,0.106894535986846,93569.8,0.119003629483645,23531.8,0.0299281350209494,20126.9,0.0255977265127677,2091.33,0.00265978831255417,2039.61,0.00259400995546786,275520.0,0.350410923132611,283745.0,0.36087161507064,508.017,0.000646104478575275,804.906,0.00102369285168038,0.0,"0,0%",290.796,"0,0%",786276.859,-9.62,-36.82
SE,Sergipe,51091.0,0.0919196732990112,53677.1,0.0965724197145946,25315.8,0.0455465750387173,26614.6,0.0478832932803011,0.0,0.0,1344.47,0.00241888479693726,192590.0,0.346495662262562,204446.0,0.367826222373601,560.902,0.00100913915548261,182.382,0.000328130078793139,0.0,"0,0%",0.0,"0,0%",555822.254,-10.57,-37.45
BA,Bahia,293939.0,0.0865544906365149,283851.0,0.0835839365367147,369392.0,0.108772692311002,361953.0,0.106582173680112,5697.77,0.00167778886134203,2299.31,0.000677064308803681,1028365.0,0.30281660059883,1040098.0,0.306271548185365,4991.07,0.00146969106372816,5413.27,0.00159401381758775,0.0,"0,0%",0.0,"0,0%",3395999.42,-13.29,-41.71
MG,Minas Gerais,856477.0,0.176023258189451,871464.0,0.179103388269401,318908.0,0.0655420113122493,275126.0,0.0565439292971449,2845.44,0.000584795178133903,1792.06,0.000368304391210724,1288208.0,0.264752666312949,1248462.0,0.256584063513343,727.734,0.000149563981023707,1693.36,0.000348019555093351,0.0,"0,0%",0.0,"0,0%",4865703.594,-18.1,-44.38
ES,Espírito Santo,157094.0,0.180456818554812,135903.0,0.156114320165345,49002.1,0.0562896295753165,48147.2,0.0553075899418327,1256.92,0.00144384753318341,1040.03,0.00119470193006456,241858.0,0.277826812112683,233349.0,0.268052364526633,1228.91,0.00141167192184421,1655.97,0.00190224373828544,0.0,"0,0%",0.0,"0,0%",870535.13,-19.19,-40.34
RJ,Rio de Janeiro,703903.0,0.19596539375028,715189.0,0.199107396886885,245394.0,0.0683172707517319,247399.0,0.0688754593295179,2663.25,0.000741444254258661,3942.96,0.00109771333399858,833443.0,0.232029108646241,831258.0,0.231420808375686,6914.86,0.00192508522144111,1164.35,0.000324153052640973,704.625,"0,0%",0.0,"0,0%",3591976.045,-22.25,-42.66
SP,São Paulo,2651910.0,0.26876035248934,2718490.0,0.275507966197475,364550.0,0.0369456680279455,340132.0,0.0344710024898674,39231.9,0.00397599438624484,49587.8,0.00502552296539887,1853056.0,0.187799730662989,1814387.0,0.183880783915019,16078.4,0.00162948080872451,19768.9,0.00200349805699534,0.0,"0,0%",0.0,"0,0%",9867192.0,-22.19,-48.79
PR,Paraná,807083.0,0.317710538720226,763397.0,0.300513419471609,62568.5,0.0246302695533377,50219.4,0.0197690109049584,8878.19,0.00349492496776729,15242.6,0.0060002932257239,435758.0,0.171537387024195,395590.0,0.155725138569806,1329.71,0.000523444156848394,242.786,9.55734055279679e-05,0.0,"0,0%",0.0,"0,0%",2540309.186,-24.89,-51.55
SC,Santa Catarina,630297.0,0.405651674407498,595386.0,0.383183368822607,27435.9,0.0176574198732926,20431.2,0.0131492780231454,1634.28,0.00105180322681321,1211.91,0.000779970903766306,140538.0,0.0904485901374764,133992.0,0.0862356621675329,1648.95,0.00106124466483934,1213.49,0.000780987773028834,0.0,"0,0%",0.0,"0,0%",1553788.73,-27.45,-50.95
RS,Rio Grande do Sul,844097.0,0.373740509543647,889156.0,0.393691265937198,73946.4,0.0327412195694551,75456.9,0.033410023083347,1595.45,0.000706416793273061,842.581,0.000373069270796834,201052.0,0.08901971802384,167982.0,0.0743773266273436,2201.08,0.000974571359389181,2181.45,0.000965879791711128,0.0,"0,0%",0.0,"0,0%",2258510.861,-30.17,-53.5
MS,Mato Grosso do Sul,131043.0,0.214260865261217,124711.0,0.2039077765893,17563.8,0.0287175582463387,18276.5,0.0298828529867802,1038.07,0.00169728849615555,544.623,0.000890481713797454,155111.0,0.253613066486059,158139.0,0.258563974966565,3658.92,0.00598248945095558,1519.01,0.00248364580283145,0.0,"0,0%",0.0,"0,0%",611604.923,-20.51,-54.54
MT,Mato Grosso,108443.0,0.140360674474336,115515.0,0.149514153167129,37649.7,0.0487310133964979,32053.8,0.0414880904020129,2798.32,0.00362194039813566,921.003,0.00119207880889396,239590.0,0.310107743213543,232506.0,0.300938732599892,1526.38,0.00197563444670599,1599.24,0.00206993909285374,0.0,"0,0%",0.0,"0,0%",772602.443,-12.64,-55.42
GO,Goiás,241477.0,0.154286817538337,252459.0,0.161303543065845,67363.1,0.0430402825880591,62735.2,0.0400833800139603,2129.73,0.00136074766506095,3292.27,0.00210352895214426,484796.0,0.309750543510627,447156.0,0.28570123110347,723.252,0.000462107154545722,2985.96,0.00190781840795096,0.0,"0,0%",0.0,"0,0%",1565117.512,-15.98,-49.86
DF,Distrito Federal,110922.0,0.156056346800102,132053.0,0.18578558594322,32209.4,0.0453154585801121,36534.8,0.0514008710541855,7835.16,0.01102329967179,3654.05,0.00514088903936922,189605.0,0.266755590730723,197372.0,0.277682995984833,0.0,0.0,596.319,0.00083896219566443,0.0,"0,0%",0.0,"0,0%",710781.729,-15.83,-47.86
