UF,Nome,BrancaEstuda,BrancaEstuda(%),BrancaNaoEstuda,BrancaNaoEstuda(%),PretaEstuda,PretaEstuda(%),PretaNaoEstuda,PretaNaoEstuda(%),AmarelaEstuda,AmarelaEstuda(%),AmarelaNaoEstuda,AmarelaNaoEstuda(%),PardaEstuda,PardaEstuda(%),PardaNaoEstuda,PardaNaoEstuda(%),IndigenaEstuda,IndigenaEstuda(%),IndigenaNaoEstuda,IndigenaNaoEstuda(%),IgnoradoEstuda,IgnoradoEstuda(%),IgnoradoNaoestuda,IgnoradoNaoestuda(%),Total,latitude,longitude
RO,Rondônia,37221.9,0.0884113765467412,60468.3,0.143627424726876,8238.62,0.0195687951191506,20458.4,0.0485938467929862,1131.77,0.00268823847343379,1636.89,0.00388802554828193,106330.0,0.252560499819058,182121.0,0.432583191832471,689.666,0.00163813025174655,2711.49,0.006440470889254,0,"0,0%",0.0,"0,0%",421008.036,-10.83,-63.34
AC,Acre,16328.0,0.070988252470259,19631.1,0.0853489394334212,5218.89,0.0226898506206829,6867.18,0.0298560207985493,0.0,0.0,520.38,0.00226242447455128,69039.2,0.300157530618858,111556.0,0.485005235948813,401.936,0.00174747269995627,447.202,0.00194427293490965,0,"0,0%",0.0,"0,0%",230009.888,-8.77,-70.55
AM,Amazonas,65750.3,0.0617403924030536,81637.0,0.0766582116675982,13537.9,0.0127122653176229,17242.6,0.0161910271139279,2953.02,0.00277292443645223,3056.96,0.00287052545707683,313077.0,0.293983401328523,538505.0,0.505663244289476,12727.4,0.011951195207788,16460.7,0.0154568127784808,0,"0,0%",0.0,"0,0%",1064947.88,-3.47,-65.1
RR,Roraima,10875.4,0.0723945617980553,16175.0,0.107672548787497,3649.08,0.0242909270064593,7127.97,0.0474489457546099,378.952,0.00252257976557153,633.439,0.0042166300854036,39565.2,0.263374709569525,62330.4,0.414916416379858,3434.64,0.0228634586069545,6053.91,0.0402992222460659,0,"0,0%",0.0,"0,0%",150223.991,1.99,-61.33
PA,Pará,149050.0,0.0701833485713524,187915.0,0.0884837567714571,61969.6,0.0291796983403373,93291.7,0.0439283723576923,3109.16,0.00146401382116139,8919.56,0.00419996369394895,627816.0,0.295620457340974,980005.0,0.46145610544561,5074.73,0.00238954407578329,6572.37,0.00309473958168332,0,"0,0%",0.0,"0,0%",2123723.12,-3.79,-52.48
AP,Amapá,17655.6,0.0747290811139649,17389.3,0.0736019399066058,5986.32,0.0253376941510994,12080.0,0.0511298001685978,293.539,0.00124243298110017,188.254,0.000796803758355895,82635.7,0.349763810247699,99530.6,0.421273153034821,470.376,0.00199091315265765,31.7468,0.000134371485098712,0,"0,0%",0.0,"0,0%",236261.4358,1.41,-51.77
TO,Tocantins,29784.5,0.0826508988285594,36877.0,0.102332327086263,15193.9,0.0421625171384864,28676.7,0.0795767943204335,1480.86,0.00410933237218219,2089.1,0.00579717614003067,96316.3,0.267274211984125,148280.0,0.411471580127207,411.357,0.00114150063923919,1255.39,0.0034836613634738,0,"0,0%",0.0,"0,0%",360365.107,-9.46,-48.26
MA,Maranhão,119644.0,0.0686380211909306,170006.0,0.0975299674917701,63708.8,0.0365488111768978,106911.0,0.0613332844400353,6922.17,0.00397114816578536,3516.85,0.00201756565164425,461950.0,0.265013990581645,804093.0,0.461296449245085,1845.09,0.00105850127477495,4518.61,0.00259226078143117,0,"0,0%",0.0,"0,0%",1743115.52,-5.42,-45.44
PI,Piauí,61952.1,0.0831494956276263,84841.2,0.113870280239775,27549.5,0.0369757769275503,37446.0,0.0502584418166954,0.0,0.0,298.081,0.00040007174585169,217954.0,0.29252866601816,314393.0,0.421965024250289,0.0,0.0,634.98,0.000852243374052375,0,"0,0%",0.0,"0,0%",745068.861,-6.6,-42.28
CE,Ceará,207581.0,0.0965269444404363,293770.0,0.136605568275839,35909.1,0.0166980393225106,66842.0,0.0310821029876898,1427.67,0.000663878788373106,8273.05,0.00384703916882061,515304.0,0.239620777325163,1015219.0,0.472085537731658,2417.4,0.00112411172260617,3754.77,0.00174600023690327,0,"0,0%",0.0,"0,0%",2150497.99,-5.2,-39.53
RN,Rio Grande do Norte,125214.0,0.159535838699107,158196.0,0.201558384356733,18676.2,0.023795448038656,45407.2,0.0578535605841049,221.599,0.000282340491637385,1085.9,0.00138355109846631,187828.0,0.239312676786749,246407.0,0.313948499419641,286.919,0.000365565059048582,1541.58,0.00196413546585661,0,"0,0%",0.0,"0,0%",784864.398,-5.81,-36.59
PB,Paraíba,117797.0,0.129743606677733,146841.0,0.161733159148069,24828.8,0.0273468599495752,31632.6,0.0348406802600581,1302.4,0.00143448537175887,2173.29,0.00239369833660154,233208.0,0.25685923262987,349616.0,0.385072971232225,412.084,0.000453876282198928,110.249,0.000121430111909585,0,"0,0%",0.0,"0,0%",907921.423,-7.28,-36.72
PE,Pernambuco,232899.0,0.106963731161908,395244.0,0.18152406390477,34709.4,0.0159410170519887,94111.9,0.0432228561339309,3543.78,0.00162755499687395,8226.76,0.0037783113923784,484369.0,0.22245658203411,914886.0,0.42018050806484,1197.23,0.000549852888415025,8177.14,0.00375552237078426,0,"0,0%",0.0,"0,0%",2177364.21,-8.38,-37.86
AL,Alagoas,66651.8,0.0867444476333032,110560.0,0.143889079219736,12627.1,0.0164336269194603,24509.2,0.0318976684190698,1308.87,0.00170343794426859,2744.09,0.00357131497283,203030.0,0.26423480240578,340853.0,0.443605502164297,2605.4,0.00339081590990503,3480.18,0.00452930441135077,0,"0,0%",0.0,"0,0%",768369.64,-9.62,-36.82
SE,Sergipe,41655.7,0.0759436287619561,58822.0,0.107239972705675,21366.1,0.0389531124549781,32050.5,0.0584321299038325,512.727,0.000934766405179399,1068.71,0.00194839398915851,149824.0,0.273148170253562,242792.0,0.442640635360175,302.506,0.000551506837293919,113.916,0.000207683328189107,0,"0,0%",0.0,"0,0%",548508.159,-10.57,-37.45
BA,Bahia,196433.0,0.0586921082075534,302346.0,0.0903377953201394,312939.0,0.0935028719734645,456369.0,0.136358242915258,4382.65,0.00130948958696265,11637.8,0.00347725187161966,849889.0,0.25393786763125,1192939.0,0.356437588760598,8385.92,0.00250562443204495,10741.4,0.00320941700783786,0,"0,0%",775.604,"0,0%",3346838.374,-13.29,-41.71
MG,Minas Gerais,668384.0,0.148235384609826,929652.0,0.206179863331998,167008.0,0.0370393293569533,411080.0,0.0911700488123705,3092.27,0.000685809104896928,8800.14,0.00195171059977546,838537.0,0.185972217624255,1478327.0,0.327865974386118,0.0,0.0,4056.52,0.000899662173806454,0,"0,0%",0.0,"0,0%",4508936.93,-18.1,-44.38
ES,Espírito Santo,107135.0,0.126856233441671,160662.0,0.190236394989553,35460.0,0.0419874180971825,70037.3,0.0829296502396447,1720.93,0.00203771594545923,1241.26,0.00146974908593651,172066.0,0.20373962443062,293842.0,0.347931948914616,745.712,0.000882981430459282,1628.51,0.00192828342485738,0,"0,0%",0.0,"0,0%",844538.712,-19.19,-40.34
RJ,Rio de Janeiro,678073.0,0.194374235346573,801554.0,0.229770903485299,171787.0,0.049243911448298,301698.0,0.0864837828015427,3199.76,0.000917232957649915,8502.54,0.0024373108957349,562084.0,0.1611251999424,956536.0,0.274197547434376,1881.31,0.000539290301633986,3176.57,0.000910585386492109,0,"0,0%",0.0,"0,0%",3488492.18,-22.25,-42.66
SP,São Paulo,2006734.0,0.205767258127747,3309805.0,0.33938205052962,199843.0,0.0204915779400874,557078.0,0.0571218769519472,32129.6,0.00329451720892816,45130.7,0.00462762897144609,1083193.0,0.111068857971793,2512248.0,0.257601845933201,3054.78,0.000313232199575767,2744.65,0.000281431971063589,0,"0,0%",484.913,"0,0%",9752445.643,-22.19,-48.79
PR,Paraná,606280.0,0.250542275796059,855591.0,0.353568839959468,25240.7,0.0104305971179745,68338.2,0.0282404304146702,7187.63,0.00297025331163824,9410.25,0.00388874026985859,275702.0,0.113932517189294,565683.0,0.233765762022733,2835.49,0.00117175251962289,3602.78,0.00148883139868135,0,"0,0%",0.0,"0,0%",2419871.05,-24.89,-51.55
SC,Santa Catarina,461816.0,0.311528855468507,701490.0,0.47320659488325,17446.4,0.0117688798656733,38652.1,0.0260736840526406,2385.95,0.00160949874561532,4539.57,0.00306227381991782,91976.1,0.0620446436750934,161392.0,0.108870773298832,357.435,0.000241116194446242,1800.59,0.00121463037631446,0,"0,0%",561.91,"0,0%",1482418.055,-27.45,-50.95
RS,Rio Grande do Sul,722664.0,0.30714238692244,1078316.0,0.45829950031641,62973.2,0.0267644976920729,107470.0,0.0456762649344019,627.311,0.000266616017793474,508.086,0.000215943712156514,118652.0,0.050428772559753,240648.0,0.10227879225769,3534.84,0.0015023568283309,17469.7,0.00742486875895153,0,"0,0%",0.0,"0,0%",2352863.137,-30.17,-53.5
MS,Mato Grosso do Sul,97857.1,0.165635788321535,136539.0,0.231109903130524,10696.0,0.0181043622985673,25036.4,0.0423773425815119,2185.41,0.00369908885666717,995.342,0.00168474496811711,107908.0,0.182648235500543,205559.0,0.347935172936724,889.706,0.0015059423862387,3130.88,0.00529941901957167,0,"0,0%",0.0,"0,0%",590796.838,-20.51,-54.54
MT,Mato Grosso,87864.3,0.117177297832243,113247.0,0.151028090448659,30609.5,0.0408213403850717,51613.2,0.0688322254712682,1056.84,0.00140941947344972,2231.69,0.0029762190536912,178355.0,0.237857206565918,281671.0,0.375641149564793,1243.79,0.00165873911555394,1948.32,0.00259831208935275,0,"0,0%",0.0,"0,0%",749840.64,-12.64,-55.42
GO,Goiás,213850.0,0.139691565230721,259934.0,0.169794656612964,44168.4,0.0288517789559813,90513.6,0.0591254919741287,400.354,0.00026152011646659,1022.59,0.000667978478790196,362172.0,0.236578786826003,552906.0,0.361170467923579,3371.39,0.0022022667575553,2185.75,0.00142778040076245,0,"0,0%",348.59,"0,0%",1530872.674,-15.98,-49.86
DF,Distrito Federal,116379.0,0.161840077922871,131841.0,0.183341992227371,32032.1,0.0445447852278606,49794.9,0.0692462600311186,795.206,0.00110583697234668,1721.4,0.00239382972990342,163026.0,0.226708775152338,220458.0,0.306575412219732,715.718,0.000995298609635769,2335.44,0.0032477319068233,0,"0,0%",0.0,"0,0%",719098.764,-15.83,-47.86
